[{"Id":"33000013","DhId":"de:14612:13","Place":"","Name":"Dresden Albertplatz","Longitude":4622535,"Latitude":5660123,"Position":"Previous","Platform":{"Name":"2","Type":"Platform"},"Time":"2022-03-28 18:47:00","State":"Cancelled"},{"Id":"33000261","DhId":"de:14612:261","Place":"","Name":"Dresden Louisenstraße","Longitude":4622596,"Latitude":5660627,"Position":"Previous","Platform":{"Name":"2","Type":"Platform"},"Time":"2022-03-28 18:49:00","State":"Cancelled"},{"Id":"33000262","DhId":"de:14612:262","Place":"","Name":"Dresden Bischofsweg","Longitude":4622794,"Latitude":5661013,"Position":"Previous","Platform":{"Name":"3","Type":"Platform"},"Time":"2022-03-28 18:51:00","State":"Cancelled"},{"Id":"33000259","DhId":"de:14612:259","Place":"","Name":"Dresden Tannenstraße","Longitude":4622979,"Latitude":5661357,"Position":"Previous","Platform":{"Name":"2","Type":"Platform"},"Time":"2022-03-28 18:52:00","State":"Cancelled"},{"Id":"33000265","DhId":"de:14612:265","Place":"","Name":"Dresden Stauffenbergallee","Longitude":4623166,"Latitude":5661690,"Position":"Previous","Platform":{},"Time":"2022-03-28 18:54:00","State":"Cancelled"},{"Id":"33000266","DhId":"de:14612:266","Place":"","Name":"Dresden Heeresbäckerei","Longitude":4623454,"Latitude":5662235,"Position":"Previous","Platform":{"Name":"92","Type":"Platform"},"Time":"2022-03-28 18:56:00","State":"Cancelled"},{"Id":"33000267","DhId":"de:14612:267","Place":"","Name":"Dresden S-Bf. Industriegelände","Longitude":4623658,"Latitude":5662760,"Position":"Previous","Platform":{"Name":"92","Type":"Platform"},"Time":"2022-03-28 18:58:00","State":"Cancelled"},{"Id":"33000268","DhId":"de:14612:268","Place":"","Name":"Dresden Hellersiedlung","Longitude":4623780,"Latitude":5663337,"Position":"Previous","Platform":{"Name":"92","Type":"Platform"},"Time":"2022-03-28 19:00:00","State":"Cancelled"},{"Id":"33000269","DhId":"de:14612:269","Place":"","Name":"Dresden Moritzburger Weg","Longitude":4623999,"Latitude":5664110,"Position":"Previous","Platform":{"Name":"92","Type":"Platform"},"Time":"2022-03-28 19:02:00","State":"Cancelled"},{"Id":"33000270","DhId":"de:14612:270","Place":"","Name":"Dresden Infineon Süd","Longitude":4624097,"Latitude":5664510,"Position":"Current","Platform":{"Name":"92","Type":"Platform"},"Time":"2022-03-28 19:03:00","State":"Cancelled"},{"Id":"33000276","DhId":"de:14612:276","Place":"","Name":"Dresden Infineon Nord","Longitude":4624249,"Latitude":5665046,"Position":"Next","Platform":{"Name":"94","Type":"Platform"},"Time":"2022-03-28 19:04:00","State":"Cancelled"},{"Id":"33000610","DhId":"de:14612:610","Place":"","Name":"Dresden Klotzsche Infineon","Longitude":4624347,"Latitude":5665056,"Position":"Next","Platform":{"Name":"1","Type":"Platform"},"Time":"2022-03-28 19:05:00","State":"Cancelled"}]
