[{"Id":"33000028","DhId":"de:14612:28","Place":"","Name":"Dresden Hauptbahnhof","Longitude":4621557,"Latitude":5657545,"Position":"Previous","Platform":{"Name":"6","Type":"Railtrack"},"Time":"2022-01-23 19:29:00","RealTime":"2022-01-23 19:29:00","State":"InTime"},{"Id":"33000001","DhId":"de:14612:1","Place":"","Name":"Dresden Bahnhof Mitte","Longitude":4621005,"Latitude":5659325,"Position":"Current","Platform":{"Name":"3","Type":"Railtrack"},"Time":"2022-01-23 19:32:00","RealTime":"2022-01-23 19:33:00","State":"Delayed"},{"Id":"33000016","DhId":"de:14612:16","Place":"","Name":"Dresden Bahnhof Neustadt","Longitude":4622123,"Latitude":5660410,"Position":"Next","Platform":{"Name":"3","Type":"Railtrack"},"Time":"2022-01-23 19:34:00","RealTime":"2022-01-23 19:35:00","State":"Delayed"},{"Id":"33000658","DhId":"de:14612:658","Place":"","Name":"Dresden Bahnhof Klotzsche","Longitude":4625380,"Latitude":5665925,"Position":"Next","Platform":{"Name":"2","Type":"Railtrack"},"Time":"2022-01-23 19:41:00","RealTime":"2022-01-23 19:42:00","State":"Delayed"},{"Id":"33006700","DhId":"de:14625:6700","Place":"","Name":"Radeberg Bahnhof","Longitude":4634074,"Latitude":5665800,"Position":"Next","Platform":{"Name":"2","Type":"Railtrack"},"Time":"2022-01-23 19:48:00","RealTime":"2022-01-23 19:49:00","State":"Delayed"},{"Id":"33006770","DhId":"de:14625:6770","Place":"","Name":"Arnsdorf Bahnhof","Longitude":4638936,"Latitude":5663860,"Position":"Next","Platform":{"Name":"2","Type":"Railtrack"},"Time":"2022-01-23 19:53:00","RealTime":"2022-01-23 19:54:00","State":"Delayed"},{"Id":"33007000","DhId":"de:14625:7000","Place":"","Name":"Bischofswerda Bahnhof","Longitude":4653122,"Latitude":5667895,"Position":"Next","Platform":{"Name":"2","Type":"Railtrack"},"Time":"2022-01-23 20:03:00","RealTime":"2022-01-23 20:04:00","State":"Delayed"},{"Id":"33007230","DhId":"de:14625:7230","Place":"","Name":"Neukirch (Lausitz) Bf Ost","Longitude":4662821,"Latitude":5664323,"Position":"Next","Platform":{"Name":"1","Type":"Railtrack"},"Time":"2022-01-23 20:14:00","RealTime":"2022-01-23 20:15:00","State":"Delayed"},{"Id":"33007407","DhId":"de:14625:7407","Place":"","Name":"Wilthen Bahnhof","Longitude":4667557,"Latitude":5664778,"Position":"Next","Platform":{"Name":"1","Type":"Railtrack"},"Time":"2022-01-23 20:18:00","RealTime":"2022-01-23 20:19:00","State":"Delayed"},{"Id":"14909285","DhId":"de:14626:9285","Place":"","Name":"Ebersbach (Sachs), Bahnhof","Longitude":4681033,"Latitude":5655295,"Position":"Next","Platform":{"Name":"1","Type":"Railtrack"},"Time":"2022-01-23 20:33:00","RealTime":"2022-01-23 20:34:00","State":"Delayed"},{"Id":"14909350","DhId":"de:14626:9350","Place":"","Name":"Neugersdorf (Sachs), Bahnhof","Longitude":4683477,"Latitude":5653408,"Position":"Next","Platform":{"Name":"1","Type":"Railtrack"},"Time":"2022-01-23 20:37:00","RealTime":"2022-01-23 20:38:00","State":"Delayed"},{"Id":"14909725","DhId":"de:14626:9725","Place":"","Name":"Oberoderwitz, Bahnhof","Longitude":4690362,"Latitude":5651368,"Position":"Next","Platform":{"Name":"1","Type":"Railtrack"},"Time":"2022-01-23 20:46:00","RealTime":"2022-01-23 20:47:00","State":"Delayed"},{"Id":"14909550","DhId":"de:14626:9550","Place":"","Name":"Zittau Bahnhof","Longitude":4697492,"Latitude":5644774,"Position":"Next","Platform":{"Name":"2a","Type":"Railtrack"},"Time":"2022-01-23 20:56:00","RealTime":"2022-01-23 20:57:00","State":"Delayed"},{"Id":"9020812","DhId":"","Place":"","Name":"Zittau (Gr)","Longitude":4699134,"Latitude":5643482,"Position":"Next","Platform":{},"Time":"2022-01-23 21:04:00","State":"Cancelled"},{"Id":"9007149","DhId":"cz:55513:41310","Place":"","Name":"Hradek nad Nisou","Longitude":4700604,"Latitude":5639381,"Position":"Next","Platform":{},"Time":"2022-01-23 21:10:00","State":"Cancelled"},{"Id":"14941310","DhId":"cz:55513:41310","Place":"","Name":"Hradek nad Nisou (Bahnhof)","Longitude":4700530,"Latitude":5639445,"Position":"Next","Platform":{},"Time":"2022-01-23 21:10:00","RealTime":"2022-01-23 21:11:00","State":"Delayed"},{"Id":"9007500","DhId":"cz:55513:41360","Place":"","Name":"Chotyne","Longitude":4702275,"Latitude":5637552,"Position":"Next","Platform":{},"Time":"2022-01-23 21:13:00","State":"Cancelled"},{"Id":"14941360","DhId":"cz:55513:41360","Place":"","Name":"Chotyne (Bahnhof)","Longitude":4702280,"Latitude":5637553,"Position":"Next","Platform":{},"Time":"2022-01-23 21:13:00","RealTime":"2022-01-23 21:14:00","State":"Delayed"},{"Id":"9007501","DhId":"cz:55513:41030","Place":"","Name":"Bily Kostel nad Nisou","Longitude":4705701,"Latitude":5635813,"Position":"Next","Platform":{},"Time":"2022-01-23 21:17:00","State":"Cancelled"},{"Id":"14941030","DhId":"cz:55513:41030","Place":"","Name":"Bily Kostel nad Nisou (Bahnhof)","Longitude":4705649,"Latitude":5635835,"Position":"Next","Platform":{},"Time":"2022-01-23 21:17:00","RealTime":"2022-01-23 21:18:00","State":"Delayed"},{"Id":"9007502","DhId":"cz:55513:41380","Place":"","Name":"Chrastava","Longitude":4708216,"Latitude":5634934,"Position":"Next","Platform":{},"Time":"2022-01-23 21:21:00","State":"Cancelled"},{"Id":"14941380","DhId":"cz:55513:41380","Place":"","Name":"Chrastava (Bahnhof)","Longitude":4708178,"Latitude":5635026,"Position":"Next","Platform":{},"Time":"2022-01-23 21:21:00","RealTime":"2022-01-23 21:22:00","State":"Delayed"},{"Id":"99240000","DhId":"cz:55513:40000","Place":"","Name":"Liberec","Longitude":4714967,"Latitude":5629516,"Position":"Next","Platform":{},"Time":"2022-01-23 21:31:00","RealTime":"2022-01-23 21:32:00","State":"Delayed"}]
