[{"Id":"33000028","DhId":"de:14612:28","Place":"","Name":"Dresden Hauptbahnhof","Longitude":4621557,"Latitude":5657545,"Position":"Previous","Platform":{"Name":"6","Type":"Railtrack"},"Time":"2022-02-14 22:29:00","RealTime":"2022-02-14 22:29:00","State":"InTime"},{"Id":"33000001","DhId":"de:14612:1","Place":"","Name":"Dresden Bahnhof Mitte","Longitude":4621005,"Latitude":5659325,"Position":"Current","Platform":{"Name":"3","Type":"Railtrack"},"Time":"2022-02-14 22:32:00","RealTime":"2022-02-14 22:32:00","State":"InTime"},{"Id":"33000016","DhId":"de:14612:16","Place":"","Name":"Dresden Bahnhof Neustadt","Longitude":4622123,"Latitude":5660410,"Position":"Next","Platform":{"Name":"3","Type":"Railtrack"},"Time":"2022-02-14 22:34:00","RealTime":"2022-02-14 22:37:00","State":"Delayed"},{"Id":"33000658","DhId":"de:14612:658","Place":"","Name":"Dresden Bahnhof Klotzsche","Longitude":4625380,"Latitude":5665925,"Position":"Next","Platform":{"Name":"2","Type":"Railtrack"},"Time":"2022-02-14 22:40:00","RealTime":"2022-02-14 22:43:00","State":"Delayed"},{"Id":"33006700","DhId":"de:14625:6700","Place":"","Name":"Radeberg Bahnhof","Longitude":4634074,"Latitude":5665800,"Position":"Next","Platform":{"Name":"2","Type":"Railtrack"},"Time":"2022-02-14 22:48:00","RealTime":"2022-02-14 22:50:00","State":"Delayed"},{"Id":"33006770","DhId":"de:14625:6770","Place":"","Name":"Arnsdorf Bahnhof","Longitude":4638936,"Latitude":5663860,"Position":"Next","Platform":{"Name":"2","Type":"Railtrack"},"Time":"2022-02-14 22:53:00","RealTime":"2022-02-14 22:55:00","State":"Delayed"},{"Id":"33007000","DhId":"de:14625:7000","Place":"","Name":"Bischofswerda Bahnhof","Longitude":4653122,"Latitude":5667895,"Position":"Next","Platform":{"Name":"2","Type":"Railtrack"},"Time":"2022-02-14 23:03:00","RealTime":"2022-02-14 23:05:00","State":"Delayed"},{"Id":"33007187","DhId":"de:14625:7187","Place":"","Name":"Demitz-Thumitz Bahnhof","Longitude":4656896,"Latitude":5669823,"Position":"Next","Platform":{},"Time":"2022-02-14 23:07:00","RealTime":"2022-02-14 23:09:00","State":"Delayed"},{"Id":"33007610","DhId":"de:14625:7610","Place":"","Name":"Seitschen Bahnhof","Longitude":4662834,"Latitude":5671347,"Position":"Next","Platform":{},"Time":"2022-02-14 23:10:00","RealTime":"2022-02-14 23:12:00","State":"Delayed"},{"Id":"33007500","DhId":"de:14625:7500","Place":"","Name":"Bautzen Bahnhof","Longitude":4669946,"Latitude":5673709,"Position":"Next","Platform":{"Name":"2","Type":"Railtrack"},"Time":"2022-02-14 23:16:00","RealTime":"2022-02-14 23:17:00","State":"Delayed"},{"Id":"33007950","DhId":"de:14625:7950","Place":"","Name":"Kubschütz Bahnhof","Longitude":4675550,"Latitude":5673035,"Position":"Next","Platform":{},"Time":"2022-02-14 23:19:00","RealTime":"2022-02-14 23:20:00","State":"Delayed"},{"Id":"33007985","DhId":"de:14625:7985","Place":"","Name":"Pommritz Bahnhof","Longitude":4680140,"Latitude":5672506,"Position":"Next","Platform":{},"Time":"2022-02-14 23:22:00","RealTime":"2022-02-14 23:23:00","State":"Delayed"},{"Id":"33007995","DhId":"de:14625:7995","Place":"","Name":"Breitendorf Bahnhof","Longitude":4683597,"Latitude":5670366,"Position":"Next","Platform":{},"Time":"2022-02-14 23:27:00","RealTime":"2022-02-14 23:28:00","State":"Delayed"},{"Id":"14909155","DhId":"de:14626:9155","Place":"","Name":"Löbau, Bahnhof","Longitude":4687235,"Latitude":5666084,"Position":"Next","Platform":{"Name":"1","Type":"Railtrack"},"Time":"2022-02-14 23:30:00","RealTime":"2022-02-14 23:31:00","State":"Delayed"},{"Id":"14908775","DhId":"de:14626:8775","Place":"","Name":"Zoblitz, Bahnhof","Longitude":4692680,"Latitude":5669007,"Position":"Next","Platform":{},"Time":"2022-02-14 23:32:00","RealTime":"2022-02-14 23:33:00","State":"Delayed"},{"Id":"14908785","DhId":"de:14626:8785","Place":"","Name":"Reichenbach/OL, Bahnhof","Longitude":4695757,"Latitude":5670462,"Position":"Next","Platform":{},"Time":"2022-02-14 23:35:00","RealTime":"2022-02-14 23:36:00","State":"Delayed"},{"Id":"14908807","DhId":"de:14626:8807","Place":"","Name":"Gersdorf (b Görlitz), Bahnhof","Longitude":4699947,"Latitude":5669453,"Position":"Next","Platform":{},"Time":"2022-02-14 23:38:00","RealTime":"2022-02-14 23:39:00","State":"Delayed"},{"Id":"14908948","DhId":"de:14626:8948","Place":"","Name":"Görlitz, Hp Rauschwalde","Longitude":4705522,"Latitude":5672338,"Position":"Next","Platform":{},"Time":"2022-02-14 23:44:00","RealTime":"2022-02-14 23:45:00","State":"Delayed"},{"Id":"14908885","DhId":"de:14626:8885","Place":"","Name":"Görlitz Bahnhof","Longitude":4708524,"Latitude":5672175,"Position":"Next","Platform":{"Name":"10","Type":"Railtrack"},"Time":"2022-02-14 23:46:00","RealTime":"2022-02-14 23:47:00","State":"Delayed"}]
