[{"Id":"33000822","DhId":"de:14612:822","Place":"","Name":"Dresden Betriebshof Gruna","Longitude":4624761,"Latitude":5656269,"Position":"Previous","Platform":{"Name":"2","Type":"Platform"},"Time":"2022-02-14 05:13:00","State":"Cancelled"},{"Id":"33000821","DhId":"de:14612:821","Place":"","Name":"Dresden Tiergartenstraße","Longitude":4624393,"Latitude":5656445,"Position":"Previous","Platform":{"Name":"4","Type":"Platform"},"Time":"2022-02-14 05:14:00","State":"Cancelled"},{"Id":"33000821","DhId":"de:14612:821","Place":"","Name":"Dresden Tiergartenstraße","Longitude":4624397,"Latitude":5656521,"Position":"Previous","Platform":{"Name":"2","Type":"Platform"},"Time":"2022-02-14 05:14:00","State":"Cancelled"},{"Id":"33000823","DhId":"de:14612:823","Place":"","Name":"Dresden Grunaer Weg","Longitude":4624969,"Latitude":5656596,"Position":"Previous","Platform":{"Name":"2","Type":"Platform"},"Time":"2022-02-14 05:16:00","State":"Cancelled"},{"Id":"33000084","DhId":"de:14612:84","Place":"","Name":"Dresden Zwinglistraße","Longitude":4625209,"Latitude":5656965,"Position":"Previous","Platform":{"Name":"1","Type":"Platform"},"Time":"2022-02-14 05:18:00","State":"Cancelled"},{"Id":"33000819","DhId":"de:14612:819","Place":"","Name":"Dresden Schneebergstraße","Longitude":4625465,"Latitude":5657167,"Position":"Previous","Platform":{"Name":"2","Type":"Platform"},"Time":"2022-02-14 05:19:00","State":"Cancelled"},{"Id":"33000826","DhId":"de:14612:826","Place":"","Name":"Dresden Schlüterstraße","Longitude":4625733,"Latitude":5657404,"Position":"Previous","Platform":{"Name":"2","Type":"Platform"},"Time":"2022-02-14 05:20:00","State":"Cancelled"},{"Id":"33000065","DhId":"de:14612:65","Place":"","Name":"Dresden Pohlandplatz","Longitude":4625998,"Latitude":5657908,"Position":"Previous","Platform":{"Name":"3","Type":"Platform"},"Time":"2022-02-14 05:21:00","State":"Cancelled"},{"Id":"33000828","DhId":"de:14612:828","Place":"","Name":"Dresden Dornblüthstraße","Longitude":4626257,"Latitude":5658197,"Position":"Previous","Platform":{"Name":"2","Type":"Platform"},"Time":"2022-02-14 05:23:00","State":"Cancelled"},{"Id":"33000829","DhId":"de:14612:829","Place":"","Name":"Dresden Niederwaldstraße","Longitude":4626524,"Latitude":5658486,"Position":"Previous","Platform":{"Name":"2","Type":"Platform"},"Time":"2022-02-14 05:24:00","State":"Cancelled"},{"Id":"33000830","DhId":"de:14612:830","Place":"","Name":"Dresden Jacobistraße","Longitude":4626198,"Latitude":5658777,"Position":"Previous","Platform":{"Name":"2","Type":"Platform"},"Time":"2022-02-14 05:25:00","State":"Cancelled"},{"Id":"33000900","DhId":"de:14612:900","Place":"","Name":"Dresden Wägnerstraße","Longitude":4626543,"Latitude":5658873,"Position":"Previous","Platform":{"Name":"2","Type":"Platform"},"Time":"2022-02-14 05:26:00","State":"Cancelled"},{"Id":"33000052","DhId":"de:14612:52","Place":"","Name":"DD Blasewitz Schillerplatz","Longitude":4626697,"Latitude":5658996,"Position":"Previous","Platform":{"Name":"2","Type":"Platform"},"Time":"2022-02-14 05:28:00","State":"Cancelled"},{"Id":"33000832","DhId":"de:14612:832","Place":"","Name":"Dresden Körnerplatz","Longitude":4627343,"Latitude":5659223,"Position":"Previous","Platform":{"Name":"2","Type":"Platform"},"Time":"2022-02-14 05:30:00","State":"Cancelled"},{"Id":"33000833","DhId":"de:14612:833","Place":"","Name":"Dresden Rißweg","Longitude":4627740,"Latitude":5659478,"Position":"Previous","Platform":{"Name":"2","Type":"Platform"},"Time":"2022-02-14 05:31:00","State":"Cancelled"},{"Id":"33000834","DhId":"de:14612:834","Place":"","Name":"Dresden Steglichstraße","Longitude":4628296,"Latitude":5659745,"Position":"Previous","Platform":{"Name":"2","Type":"Platform"},"Time":"2022-02-14 05:32:00","State":"Cancelled"},{"Id":"33000835","DhId":"de:14612:835","Place":"","Name":"Dresden Tännichtstraße","Longitude":4628581,"Latitude":5659842,"Position":"Previous","Platform":{"Name":"2","Type":"Platform"},"Time":"2022-02-14 05:33:00","State":"Cancelled"},{"Id":"33000851","DhId":"de:14612:851","Place":"","Name":"Dresden Elisabethstraße","Longitude":4629119,"Latitude":5659792,"Position":"Previous","Platform":{"Name":"2","Type":"Platform"},"Time":"2022-02-14 05:34:00","State":"Cancelled"},{"Id":"33000301","DhId":"de:14612:301","Place":"","Name":"Dresden Grundstraße","Longitude":4629696,"Latitude":5660149,"Position":"Previous","Platform":{"Name":"3","Type":"Platform"},"Time":"2022-02-14 05:36:00","State":"Cancelled"},{"Id":"33000302","DhId":"de:14612:302","Place":"","Name":"Dresden Bühlau Ullersdorfer Platz","Longitude":4630098,"Latitude":5660203,"Position":"Previous","Platform":{"Name":"4","Type":"Platform"},"Time":"2022-02-14 05:38:00","State":"Cancelled"},{"Id":"33000861","DhId":"de:14612:861","Place":"","Name":"Dresden Cunewalder Straße","Longitude":4630360,"Latitude":5659884,"Position":"Previous","Platform":{"Name":"2","Type":"Platform"},"Time":"2022-02-14 05:39:00","State":"Cancelled"},{"Id":"33000860","DhId":"de:14612:860","Place":"","Name":"Dresden Quohrener Straße","Longitude":4630610,"Latitude":5659610,"Position":"Previous","Platform":{"Name":"2","Type":"Platform"},"Time":"2022-02-14 05:40:00","State":"Cancelled"},{"Id":"33000862","DhId":"de:14612:862","Place":"","Name":"Dresden Hornweg","Longitude":4630836,"Latitude":5659252,"Position":"Previous","Platform":{"Name":"2","Type":"Platform"},"Time":"2022-02-14 05:41:00","State":"Cancelled"},{"Id":"33003780","DhId":"de:14612:3780","Place":"","Name":"Gönnsdorf (Dresden) Alte Dorfstraße","Longitude":4631098,"Latitude":5658557,"Position":"Previous","Platform":{"Name":"1","Type":"Platform"},"Time":"2022-02-14 05:42:00","State":"Cancelled"},{"Id":"33003784","DhId":"de:14612:3784","Place":"","Name":"Gönnsdorf (Dresden) Zachengrundring","Longitude":4630870,"Latitude":5658325,"Position":"Previous","Platform":{"Name":"2","Type":"Platform"},"Time":"2022-02-14 05:43:00","State":"Cancelled"},{"Id":"33003782","DhId":"de:14612:3782","Place":"","Name":"Pappritz (Dresden) Rochwitzer Weg","Longitude":4630080,"Latitude":5657711,"Position":"Current","Platform":{"Name":"2","Type":"Platform"},"Time":"2022-02-14 05:44:00","State":"Cancelled"},{"Id":"33003783","DhId":"de:14612:3783","Place":"","Name":"Fernsehturm","Longitude":4629394,"Latitude":5657726,"Position":"Next","Platform":{"Name":"2","Type":"Platform"},"Time":"2022-02-14 05:46:00","State":"Cancelled"}]
