[{"Id":"99240000","DhId":"cz:55513:40000","Place":"","Name":"Liberec","Longitude":4714967,"Latitude":5629516,"Position":"Previous","Time":"2022-01-27 13:32:00","RealTime":"2022-01-27 13:32:00","State":"InTime","Platform":{}},{"Id":"9007504","DhId":"cz:55513:40029","Place":"","Name":"Machnin","Longitude":4710567,"Latitude":5632247,"Position":"Previous","Time":"2022-01-27 13:36:00","State":"Cancelled","Platform":{}},{"Id":"14940029","DhId":"cz:55513:40029","Place":"","Name":"Liberec, Machnin (Bahnhof)","Longitude":4710543,"Latitude":5632263,"Position":"Previous","Time":"2022-01-27 13:36:00","RealTime":"2022-01-27 13:36:00","State":"InTime","Platform":{}},{"Id":"9020271","DhId":"cz:55513:40051","Place":"","Name":"Machnin hrad","Longitude":4709487,"Latitude":5632256,"Position":"Previous","Time":"2022-01-27 13:37:00","State":"Cancelled","Platform":{}},{"Id":"14940051","DhId":"cz:55513:40051","Place":"","Name":"Machnin hrad (Bahnhof)","Longitude":4709680,"Latitude":5632240,"Position":"Previous","Time":"2022-01-27 13:37:00","RealTime":"2022-01-27 13:37:00","State":"InTime","Platform":{}},{"Id":"9007503","DhId":"cz:55513:41396","Place":"","Name":"Chrastava-Andelska Hora","Longitude":4708621,"Latitude":5633211,"Position":"Previous","Time":"2022-01-27 13:39:00","State":"Cancelled","Platform":{}},{"Id":"14941396","DhId":"cz:55513:41396","Place":"","Name":"Chrastava - Andelska Hora (Bahnhof)","Longitude":4708642,"Latitude":5633239,"Position":"Previous","Time":"2022-01-27 13:39:00","RealTime":"2022-01-27 13:39:00","State":"InTime","Platform":{}},{"Id":"9007502","DhId":"cz:55513:41380","Place":"","Name":"Chrastava","Longitude":4708216,"Latitude":5634934,"Position":"Previous","Time":"2022-01-27 13:42:00","State":"Cancelled","Platform":{}},{"Id":"14941380","DhId":"cz:55513:41380","Place":"","Name":"Chrastava (Bahnhof)","Longitude":4708178,"Latitude":5635026,"Position":"Previous","Time":"2022-01-27 13:42:00","RealTime":"2022-01-27 13:42:00","State":"InTime","Platform":{}},{"Id":"9007501","DhId":"cz:55513:41030","Place":"","Name":"Bily Kostel nad Nisou","Longitude":4705701,"Latitude":5635813,"Position":"Previous","Time":"2022-01-27 13:46:00","State":"Cancelled","Platform":{}},{"Id":"14941030","DhId":"cz:55513:41030","Place":"","Name":"Bily Kostel nad Nisou (Bahnhof)","Longitude":4705649,"Latitude":5635835,"Position":"Previous","Time":"2022-01-27 13:46:00","RealTime":"2022-01-27 13:46:00","State":"InTime","Platform":{}},{"Id":"9007500","DhId":"cz:55513:41360","Place":"","Name":"Chotyne","Longitude":4702275,"Latitude":5637552,"Position":"Previous","Time":"2022-01-27 13:50:00","State":"Cancelled","Platform":{}},{"Id":"14941360","DhId":"cz:55513:41360","Place":"","Name":"Chotyne (Bahnhof)","Longitude":4702280,"Latitude":5637553,"Position":"Previous","Time":"2022-01-27 13:50:00","RealTime":"2022-01-27 13:50:00","State":"InTime","Platform":{}},{"Id":"9007149","DhId":"cz:55513:41310","Place":"","Name":"Hradek nad Nisou","Longitude":4700604,"Latitude":5639381,"Position":"Previous","Time":"2022-01-27 13:53:00","State":"Cancelled","Platform":{}},{"Id":"14941310","DhId":"cz:55513:41310","Place":"","Name":"Hradek nad Nisou (Bahnhof)","Longitude":4700530,"Latitude":5639445,"Position":"Previous","Time":"2022-01-27 13:53:00","RealTime":"2022-01-27 13:53:00","State":"InTime","Platform":{}},{"Id":"9020812","DhId":"","Place":"","Name":"Zittau (Gr)","Longitude":4699134,"Latitude":5643482,"Position":"Previous","Time":"2022-01-27 14:01:00","State":"Cancelled","Platform":{}},{"Id":"14909550","DhId":"de:14626:9550","Place":"","Name":"Zittau Bahnhof","Longitude":4697532,"Latitude":5644770,"Position":"Previous","Time":"2022-01-27 14:04:00","RealTime":"2022-01-27 14:04:00","State":"InTime","Platform":{"Name":"1a","Type":"Railtrack"}},{"Id":"14909700","DhId":"de:14626:9700","Place":"","Name":"Mittelherwigsdorf, Bahnhof","Longitude":4692850,"Latitude":5646586,"Position":"Previous","Time":"2022-01-27 14:11:00","RealTime":"2022-01-27 14:11:00","State":"InTime","Platform":{"Name":"1","Type":"Railtrack"}},{"Id":"14909715","DhId":"de:14626:9715","Place":"","Name":"Niederoderwitz, Bahnhof","Longitude":4691551,"Latitude":5649854,"Position":"Previous","Time":"2022-01-27 14:14:00","RealTime":"2022-01-27 14:14:00","State":"InTime","Platform":{"Name":"1","Type":"Railtrack"}},{"Id":"14909725","DhId":"de:14626:9725","Place":"","Name":"Oberoderwitz, Bahnhof","Longitude":4690362,"Latitude":5651368,"Position":"Previous","Time":"2022-01-27 14:16:00","RealTime":"2022-01-27 14:16:00","State":"InTime","Platform":{"Name":"1","Type":"Railtrack"}},{"Id":"14909729","DhId":"de:14626:9729","Place":"","Name":"Oberoderwitz, Bahnhof Oberdorf","Longitude":4688232,"Latitude":5652150,"Position":"Previous","Time":"2022-01-27 14:20:00","RealTime":"2022-01-27 14:20:00","State":"InTime","Platform":{"Name":"1","Type":"Railtrack"}},{"Id":"14909341","DhId":"de:14626:9341","Place":"","Name":"Eibau, Bahnhof","Longitude":4685890,"Latitude":5653469,"Position":"Previous","Time":"2022-01-27 14:24:00","RealTime":"2022-01-27 14:24:00","State":"InTime","Platform":{"Name":"1","Type":"Railtrack"}},{"Id":"14909350","DhId":"de:14626:9350","Place":"","Name":"Neugersdorf (Sachs), Bahnhof","Longitude":4683477,"Latitude":5653408,"Position":"Previous","Time":"2022-01-27 14:27:00","RealTime":"2022-01-27 14:27:00","State":"InTime","Platform":{"Name":"1","Type":"Railtrack"}},{"Id":"14909285","DhId":"de:14626:9285","Place":"","Name":"Ebersbach (Sachs), Bahnhof","Longitude":4681057,"Latitude":5655289,"Position":"Previous","Time":"2022-01-27 14:32:00","RealTime":"2022-01-27 14:32:00","State":"InTime","Platform":{"Name":"3","Type":"Railtrack"}},{"Id":"14909255","DhId":"de:14626:9255","Place":"","Name":"Neusalza-Spremberg Bahnhof","Longitude":4677287,"Latitude":5658495,"Position":"Previous","Time":"2022-01-27 14:41:00","RealTime":"2022-01-27 14:41:00","State":"InTime","Platform":{"Name":"1","Type":"Railtrack"}},{"Id":"33007288","DhId":"de:14625:7288","Place":"","Name":"Taubenheim Hp","Longitude":4674081,"Latitude":5659309,"Position":"Previous","Time":"2022-01-27 14:44:00","RealTime":"2022-01-27 14:44:00","State":"InTime","Platform":{"Name":"1","Type":"Railtrack"}},{"Id":"33007268","DhId":"de:14625:7268","Place":"","Name":"Sohland Bahnhof","Longitude":4670570,"Latitude":5660463,"Position":"Previous","Time":"2022-01-27 14:48:00","RealTime":"2022-01-27 14:48:00","State":"InTime","Platform":{"Name":"1","Type":"Railtrack"}},{"Id":"33007295","DhId":"de:14625:7295","Place":"","Name":"Schirgiswalde Bahnhof","Longitude":4670120,"Latitude":5663423,"Position":"Previous","Time":"2022-01-27 14:52:00","RealTime":"2022-01-27 14:52:00","State":"InTime","Platform":{"Name":"1","Type":"Railtrack"}},{"Id":"33007407","DhId":"de:14625:7407","Place":"","Name":"Wilthen Bahnhof","Longitude":4667557,"Latitude":5664778,"Position":"Previous","Time":"2022-01-27 14:55:00","RealTime":"2022-01-27 14:55:00","State":"InTime","Platform":{"Name":"8","Type":"Railtrack"}},{"Id":"33007230","DhId":"de:14625:7230","Place":"","Name":"Neukirch (Lausitz) Bf Ost","Longitude":4662821,"Latitude":5664323,"Position":"Previous","Time":"2022-01-27 15:01:00","RealTime":"2022-01-27 15:01:00","State":"InTime","Platform":{"Name":"1","Type":"Railtrack"}},{"Id":"33007220","DhId":"de:14625:7220","Place":"","Name":"Neukirch (Lausitz) Bf West","Longitude":4659171,"Latitude":5663470,"Position":"Previous","Time":"2022-01-27 15:05:00","RealTime":"2022-01-27 15:05:00","State":"InTime","Platform":{"Name":"1","Type":"Railtrack"}},{"Id":"33007200","DhId":"de:14625:7200","Place":"","Name":"Putzkau Bahnhof","Longitude":4656696,"Latitude":5665515,"Position":"Previous","Time":"2022-01-27 15:08:00","RealTime":"2022-01-27 15:08:00","State":"InTime","Platform":{"Name":"1","Type":"Railtrack"}},{"Id":"33007219","DhId":"de:14625:7219","Place":"","Name":"Schmölln Bahnhof","Longitude":4656137,"Latitude":5667322,"Position":"Previous","Time":"2022-01-27 15:10:00","RealTime":"2022-01-27 15:10:00","State":"InTime","Platform":{"Name":"1","Type":"Railtrack"}},{"Id":"33007000","DhId":"de:14625:7000","Place":"","Name":"Bischofswerda Bahnhof","Longitude":4653122,"Latitude":5667895,"Position":"Previous","Time":"2022-01-27 15:13:00","RealTime":"2022-01-27 15:13:00","State":"InTime","Platform":{"Name":"3","Type":"Railtrack"}},{"Id":"33007063","DhId":"de:14625:7063","Place":"","Name":"Weickersdorf Bahnhof","Longitude":4650765,"Latitude":5666197,"Position":"Previous","Time":"2022-01-27 15:22:00","RealTime":"2022-01-27 15:25:00","State":"Delayed","Platform":{"Name":"1","Type":"Railtrack"}},{"Id":"33007103","DhId":"de:14625:7103","Place":"","Name":"Großharthau Bahnhof","Longitude":4646305,"Latitude":5665082,"Position":"Previous","Time":"2022-01-27 15:26:00","RealTime":"2022-01-27 15:29:00","State":"Delayed","Platform":{"Name":"2","Type":"Railtrack"}},{"Id":"33006770","DhId":"de:14625:6770","Place":"","Name":"Arnsdorf Bahnhof","Longitude":4638937,"Latitude":5663864,"Position":"Previous","Time":"2022-01-27 15:31:00","RealTime":"2022-01-27 15:34:00","State":"Delayed","Platform":{"Name":"3","Type":"Railtrack"}},{"Id":"33006700","DhId":"de:14625:6700","Place":"","Name":"Radeberg Bahnhof","Longitude":4634076,"Latitude":5665811,"Position":"Previous","Time":"2022-01-27 15:37:00","RealTime":"2022-01-27 15:38:00","State":"Delayed","Platform":{"Name":"1","Type":"Railtrack"}},{"Id":"33006680","DhId":"de:14612:6680","Place":"","Name":"Langebrück Bahnhof","Longitude":4628948,"Latitude":5667374,"Position":"Previous","Time":"2022-01-27 15:41:00","RealTime":"2022-01-27 15:43:00","State":"Delayed","Platform":{"Name":"1","Type":"Railtrack"}},{"Id":"33000658","DhId":"de:14612:658","Place":"","Name":"Dresden Bahnhof Klotzsche","Longitude":4625377,"Latitude":5665925,"Position":"Previous","Time":"2022-01-27 15:45:00","RealTime":"2022-01-27 15:47:00","State":"Delayed","Platform":{"Name":"1","Type":"Railtrack"}},{"Id":"33000267","DhId":"de:14612:267","Place":"","Name":"Dresden S-Bf. Industriegelände","Longitude":4623591,"Latitude":5662829,"Position":"Previous","Time":"2022-01-27 15:49:00","RealTime":"2022-01-27 15:51:00","State":"Delayed","Platform":{"Name":"1","Type":"Railtrack"}},{"Id":"33000016","DhId":"de:14612:16","Place":"","Name":"Dresden Bahnhof Neustadt","Longitude":4622087,"Latitude":5660439,"Position":"Previous","Time":"2022-01-27 15:52:00","RealTime":"2022-01-27 15:53:00","State":"Delayed","Platform":{"Name":"8","Type":"Railtrack"}},{"Id":"33000001","DhId":"de:14612:1","Place":"","Name":"Dresden Bahnhof Mitte","Longitude":4620965,"Latitude":5659294,"Position":"Current","Time":"2022-01-27 15:55:00","RealTime":"2022-01-27 15:56:00","State":"Delayed","Platform":{"Name":"4","Type":"Railtrack"}},{"Id":"33000028","DhId":"de:14612:28","Place":"","Name":"Dresden Hauptbahnhof","Longitude":4621557,"Latitude":5657545,"Position":"Next","Time":"2022-01-27 15:58:00","RealTime":"2022-01-27 15:59:00","State":"Delayed","Platform":{"Name":"6","Type":"Railtrack"}}]
