[{"Id":"99204383","DhId":"cz:55421:4383","Place":"","Name":"Decín, Decin hl.n. (Hauptbahnhof)","Longitude":4655348,"Latitude":5628724,"Position":"Previous","Platform":{"Name":"1","Type":"Platform"},"Time":"2022-02-07 22:41:00","RealTime":"2022-02-07 22:41:00","State":"InTime"},{"Id":"99221105","DhId":"cz:55421:21105","Place":"","Name":"Decin, Priper","Longitude":4655898,"Latitude":5630057,"Position":"Previous","Platform":{},"Time":"2022-02-07 22:43:00","RealTime":"2022-02-07 22:43:00","State":"InTime"},{"Id":"99221104","DhId":"cz:55421:21104","Place":"","Name":"Decin, Prostredni Zleb","Longitude":4657334,"Latitude":5630984,"Position":"Previous","Platform":{},"Time":"2022-02-07 22:46:00","RealTime":"2022-02-07 22:46:00","State":"InTime"},{"Id":"99221103","DhId":"cz:55421:21103","Place":"","Name":"Decin, Certova voda","Longitude":4656663,"Latitude":5633603,"Position":"Previous","Platform":{},"Time":"2022-02-07 22:49:00","RealTime":"2022-02-07 22:49:00","State":"InTime"},{"Id":"99221106","DhId":"cz:55421:21106","Place":"","Name":"Dolní Zleb, zastavka","Longitude":4656672,"Latitude":5635952,"Position":"Previous","Platform":{},"Time":"2022-02-07 22:52:00","RealTime":"2022-02-07 22:52:00","State":"InTime"},{"Id":"99221000","DhId":"cz:55421:21000","Place":"","Name":"Dolni Zleb","Longitude":4656153,"Latitude":5636790,"Position":"Previous","Platform":{},"Time":"2022-02-07 22:55:00","RealTime":"2022-02-07 22:55:00","State":"InTime"},{"Id":"9020798","DhId":"de:80891","Place":"","Name":"Schöna (Gr)","Longitude":4656554,"Latitude":5638430,"Position":"Previous","Platform":{},"Time":"2022-02-07 22:57:00","State":"Cancelled"},{"Id":"33003598","DhId":"de:14628:3598","Place":"","Name":"Schöna Bahnhof","Longitude":4657388,"Latitude":5640235,"Position":"Previous","Platform":{"Name":"1","Type":"Railtrack"},"Time":"2022-02-07 22:59:00","RealTime":"2022-02-07 23:01:00","State":"Delayed"},{"Id":"33003645","DhId":"de:14628:3645","Place":"","Name":"Schmilka Hp Hirschmühle","Longitude":4656913,"Latitude":5641750,"Position":"Current","Platform":{"Name":"1","Type":"Railtrack"},"Time":"2022-02-07 23:03:00","RealTime":"2022-02-07 23:03:00","State":"InTime"},{"Id":"33003610","DhId":"de:14628:3610","Place":"","Name":"Krippen Bahnhof","Longitude":4652031,"Latitude":5644201,"Position":"Next","Platform":{"Name":"2","Type":"Railtrack"},"Time":"2022-02-07 23:07:00","RealTime":"2022-02-07 23:07:00","State":"InTime"},{"Id":"33003620","DhId":"de:14628:3620","Place":"","Name":"Bad Schandau Nationalparkbahnhof","Longitude":4650419,"Latitude":5644834,"Position":"Next","Platform":{"Name":"3","Type":"Railtrack"},"Time":"2022-02-07 23:10:00","RealTime":"2022-02-07 23:10:00","State":"InTime"}]
