[{"Id":"33000028","DhId":"de:14612:28","Place":"","Name":"Dresden Hauptbahnhof","Longitude":4621702,"Latitude":5657495,"Position":"Previous","Platform":{"Name":"6","Type":"Platform"},"Time":"2022-02-17 06:53:00","RealTime":"2022-02-17 06:53:00","State":"InTime"},{"Id":"33000131","DhId":"de:14612:131","Place":"","Name":"Dresden Reichenbachstraße","Longitude":4621548,"Latitude":5657028,"Position":"Previous","Platform":{"Name":"2","Type":"Platform"},"Time":"2022-02-17 06:55:00","RealTime":"2022-02-17 06:55:00","State":"InTime"},{"Id":"33000727","DhId":"de:14612:727","Place":"","Name":"Dresden Techn. Universität (Fr.-Foerster-Platz)","Longitude":4621515,"Latitude":5656360,"Position":"Previous","Platform":{"Name":"4","Type":"Platform"},"Time":"2022-02-17 06:57:00","RealTime":"2022-02-17 06:59:00","State":"Delayed"},{"Id":"33000732","DhId":"de:14612:732","Place":"","Name":"Dresden Mommsenstraße","Longitude":4621559,"Latitude":5656129,"Position":"Previous","Platform":{"Name":"2","Type":"Platform"},"Time":"2022-02-17 06:58:00","RealTime":"2022-02-17 07:00:00","State":"Delayed"},{"Id":"33000733","DhId":"de:14612:733","Place":"","Name":"Dresden Südhöhe","Longitude":4621410,"Latitude":5655276,"Position":"Previous","Platform":{"Name":"2","Type":"Platform"},"Time":"2022-02-17 07:00:00","State":"Cancelled"},{"Id":"33000743","DhId":"de:14612:743","Place":"","Name":"Dresden Höckendorfer Weg","Longitude":4621174,"Latitude":5655224,"Position":"Previous","Platform":{"Name":"2","Type":"Platform"},"Time":"2022-02-17 07:01:00","State":"Cancelled"},{"Id":"33000740","DhId":"de:14612:740","Place":"","Name":"Dresden Dorfhainer Straße","Longitude":4620720,"Latitude":5655144,"Position":"Previous","Platform":{"Name":"2","Type":"Platform"},"Time":"2022-02-17 07:02:00","State":"Cancelled"},{"Id":"33000741","DhId":"de:14612:741","Place":"","Name":"Dresden Cunnersdorfer Straße","Longitude":4619888,"Latitude":5655046,"Position":"Previous","Platform":{"Name":"2","Type":"Platform"},"Time":"2022-02-17 07:04:00","State":"Cancelled"},{"Id":"33000164","DhId":"de:14612:164","Place":"","Name":"Dresden Achtbeeteweg","Longitude":4619617,"Latitude":5654989,"Position":"Current","Platform":{"Name":"2","Type":"Platform"},"Time":"2022-02-17 07:05:00","State":"Cancelled"},{"Id":"33000165","DhId":"de:14612:165","Place":"","Name":"Dresden Coschütz","Longitude":4619344,"Latitude":5654785,"Position":"Next","Platform":{"Name":"1","Type":"Platform"},"Time":"2022-02-17 07:06:00","State":"Cancelled"},{"Id":"33000694","DhId":"de:14612:694","Place":"","Name":"Dresden Tübinger Straße","Longitude":4619405,"Latitude":5654389,"Position":"Next","Platform":{"Name":"2","Type":"Platform"},"Time":"2022-02-17 07:07:00","State":"Cancelled"},{"Id":"33000692","DhId":"de:14612:692","Place":"","Name":"Dresden Heilbronner Straße","Longitude":4619494,"Latitude":5654164,"Position":"Next","Platform":{"Name":"2","Type":"Platform"},"Time":"2022-02-17 07:08:00","State":"Cancelled"},{"Id":"33000693","DhId":"de:14612:693","Place":"","Name":"Dresden Stuttgarter Straße","Longitude":4619284,"Latitude":5653779,"Position":"Next","Platform":{"Name":"1","Type":"Platform"},"Time":"2022-02-17 07:09:00","State":"Cancelled"},{"Id":"33000749","DhId":"de:14612:749","Place":"","Name":"DD Gewerbegebiet Gittersee","Longitude":4618936,"Latitude":5653963,"Position":"Next","Platform":{"Name":"1","Type":"Platform"},"Time":"2022-02-17 07:10:00","State":"Cancelled"},{"Id":"33000746","DhId":"de:14612:746","Place":"","Name":"Dresden Hermann-Michel-Str","Longitude":4618609,"Latitude":5653622,"Position":"Next","Platform":{"Name":"2","Type":"Platform"},"Time":"2022-02-17 07:11:00","State":"Cancelled"},{"Id":"33001137","DhId":"de:14628:1137","Place":"","Name":"Freital Burgker Straße","Longitude":4618458,"Latitude":5653352,"Position":"Next","Platform":{"Name":"1","Type":"Platform"},"Time":"2022-02-17 07:12:00","State":"Cancelled"},{"Id":"33001124","DhId":"de:14628:1124","Place":"","Name":"Freital Kleinnaundorf Reiboldschachtring","Longitude":4618264,"Latitude":5653097,"Position":"Next","Platform":{"Name":"1","Type":"Platform"},"Time":"2022-02-17 07:14:00","State":"Cancelled"},{"Id":"33001120","DhId":"de:14628:1120","Place":"","Name":"Freital Kleinnaundorf Am Birkenwäldchen","Longitude":4617938,"Latitude":5652785,"Position":"Next","Platform":{"Name":"1","Type":"Platform"},"Time":"2022-02-17 07:15:00","State":"Cancelled"},{"Id":"33001121","DhId":"de:14628:1121","Place":"","Name":"Freital Kleinnaundorf Am Segen","Longitude":4618221,"Latitude":5651964,"Position":"Next","Platform":{"Name":"1","Type":"Platform"},"Time":"2022-02-17 07:17:00","State":"Cancelled"},{"Id":"33001122","DhId":"de:14628:1122","Place":"","Name":"Freital Kleinnaundorf Hoher Plan","Longitude":4619015,"Latitude":5652034,"Position":"Next","Platform":{"Name":"1","Type":"Platform"},"Time":"2022-02-17 07:18:00","State":"Cancelled"},{"Id":"33001073","DhId":"de:14628:1073","Place":"","Name":"Bannewitz Siedlung","Longitude":4619939,"Latitude":5651894,"Position":"Next","Platform":{"Name":"1","Type":"Platform"},"Time":"2022-02-17 07:19:00","State":"Cancelled"},{"Id":"33001062","DhId":"de:14628:1062","Place":"","Name":"Bannewitz Neues Leben","Longitude":4620268,"Latitude":5652022,"Position":"Next","Platform":{"Name":"1","Type":"Platform"},"Time":"2022-02-17 07:20:00","State":"Cancelled"},{"Id":"33001075","DhId":"de:14628:1075","Place":"","Name":"Bannewitz Wendeplatz","Longitude":4620332,"Latitude":5652134,"Position":"Next","Platform":{"Name":"2","Type":"Platform"},"Time":"2022-02-17 07:21:00","State":"Cancelled"},{"Id":"33001084","DhId":"de:14628:1084","Place":"","Name":"Bannewitz Carl-Behrens-Straße","Longitude":4620613,"Latitude":5652291,"Position":"Next","Platform":{"Name":"1","Type":"Platform"},"Time":"2022-02-17 07:22:00","State":"Cancelled"},{"Id":"33001074","DhId":"de:14628:1074","Place":"","Name":"Bannewitz Welschhufe","Longitude":4620491,"Latitude":5651300,"Position":"Next","Platform":{"Name":"1","Type":"Platform"},"Time":"2022-02-17 07:24:00","State":"Cancelled"},{"Id":"33001061","DhId":"de:14628:1061","Place":"","Name":"Hänichen Pulverweg","Longitude":4620725,"Latitude":5650709,"Position":"Next","Platform":{"Name":"1","Type":"Platform"},"Time":"2022-02-17 07:25:00","State":"Cancelled"},{"Id":"33001059","DhId":"de:14628:1059","Place":"","Name":"Hänichen Am Käferberg","Longitude":4620583,"Latitude":5650360,"Position":"Next","Platform":{"Name":"2","Type":"Platform"},"Time":"2022-02-17 07:26:00","State":"Cancelled"},{"Id":"33001030","DhId":"de:14628:1030","Place":"","Name":"Possendorf Hauptstraße (Wendeplatz)","Longitude":4620419,"Latitude":5649507,"Position":"Next","Platform":{"Name":"4","Type":"Platform"},"Time":"2022-02-17 07:28:00","State":"Cancelled"}]
