[{"Id":"99204383","DhId":"cz:55421:4383","Place":"","Name":"Decín, Decin hl.n. (Hauptbahnhof)","Longitude":4655348,"Latitude":5628724,"Position":"Previous","Platform":{"Name":"1","Type":"Platform"},"Time":"2022-02-04 14:41:00","RealTime":"2022-02-04 14:41:00","State":"InTime"},{"Id":"99221105","DhId":"cz:55421:21105","Place":"","Name":"Decin, Priper","Longitude":4655898,"Latitude":5630057,"Position":"Previous","Platform":{},"Time":"2022-02-04 14:43:00","RealTime":"2022-02-04 14:43:00","State":"InTime"},{"Id":"99221104","DhId":"cz:55421:21104","Place":"","Name":"Decin, Prostredni Zleb","Longitude":4657334,"Latitude":5630984,"Position":"Previous","Platform":{},"Time":"2022-02-04 14:46:00","RealTime":"2022-02-04 14:46:00","State":"InTime"},{"Id":"99221103","DhId":"cz:55421:21103","Place":"","Name":"Decin, Certova voda","Longitude":4656663,"Latitude":5633603,"Position":"Previous","Platform":{},"Time":"2022-02-04 14:49:00","RealTime":"2022-02-04 14:50:00","State":"Delayed"},{"Id":"99221106","DhId":"cz:55421:21106","Place":"","Name":"Dolní Zleb, zastavka","Longitude":4656672,"Latitude":5635952,"Position":"Previous","Platform":{},"Time":"2022-02-04 14:52:00","RealTime":"2022-02-04 14:53:00","State":"Delayed"},{"Id":"99221000","DhId":"cz:55421:21000","Place":"","Name":"Dolni Zleb","Longitude":4656153,"Latitude":5636790,"Position":"Previous","Platform":{},"Time":"2022-02-04 14:54:00","RealTime":"2022-02-04 14:54:00","State":"InTime"},{"Id":"9020798","DhId":"de:80891","Place":"","Name":"Schöna (Gr)","Longitude":4656554,"Latitude":5638430,"Position":"Previous","Platform":{},"Time":"2022-02-04 14:57:00","State":"Cancelled"},{"Id":"33003598","DhId":"de:14628:3598","Place":"","Name":"Schöna Bahnhof","Longitude":4657388,"Latitude":5640235,"Position":"Previous","Platform":{"Name":"1","Type":"Railtrack"},"Time":"2022-02-04 14:59:00","RealTime":"2022-02-04 14:59:00","State":"InTime"},{"Id":"33003645","DhId":"de:14628:3645","Place":"","Name":"Schmilka Hp Hirschmühle","Longitude":4656913,"Latitude":5641750,"Position":"Current","Platform":{"Name":"1","Type":"Railtrack"},"Time":"2022-02-04 15:02:00","RealTime":"2022-02-04 15:02:00","State":"InTime"},{"Id":"33003610","DhId":"de:14628:3610","Place":"","Name":"Krippen Bahnhof","Longitude":4651993,"Latitude":5644217,"Position":"Next","Platform":{"Name":"1","Type":"Railtrack"},"Time":"2022-02-04 15:07:00","RealTime":"2022-02-04 15:07:00","State":"InTime"},{"Id":"33003620","DhId":"de:14628:3620","Place":"","Name":"Bad Schandau Nationalparkbahnhof","Longitude":4650419,"Latitude":5644846,"Position":"Next","Platform":{"Name":"2","Type":"Railtrack"},"Time":"2022-02-04 15:10:00","RealTime":"2022-02-04 15:10:00","State":"InTime"},{"Id":"33003653","DhId":"de:14628:3653","Place":"","Name":"Rathmannsdorf Bahnhof","Longitude":4649914,"Latitude":5645680,"Position":"Next","Platform":{"Name":"1","Type":"Railtrack"},"Time":"2022-02-04 15:20:00","RealTime":"2022-02-04 15:20:00","State":"InTime"},{"Id":"33003664","DhId":"de:14628:3664","Place":"","Name":"Haltepunkt Porschdorf","Longitude":4650385,"Latitude":5647500,"Position":"Next","Platform":{"Name":"1","Type":"Railtrack"},"Time":"2022-02-04 15:23:00","RealTime":"2022-02-04 15:23:00","State":"InTime"},{"Id":"33003670","DhId":"de:14628:3670","Place":"","Name":"Bahnhof Goßdorf-Kohlmühle","Longitude":4652233,"Latitude":5647332,"Position":"Next","Platform":{"Name":"1","Type":"Railtrack"},"Time":"2022-02-04 15:26:00","RealTime":"2022-02-04 15:26:00","State":"InTime"},{"Id":"33003674","DhId":"de:14628:3674","Place":"","Name":"Ulbersdorf Bahnhof","Longitude":4656083,"Latitude":5649055,"Position":"Next","Platform":{"Name":"2","Type":"Railtrack"},"Time":"2022-02-04 15:32:00","RealTime":"2022-02-04 15:32:00","State":"InTime"},{"Id":"33003940","DhId":"de:14628:3940","Place":"","Name":"Hainersdorf Hp Amtshainersdorf","Longitude":4656905,"Latitude":5650258,"Position":"Next","Platform":{"Name":"1","Type":"Railtrack"},"Time":"2022-02-04 15:34:00","RealTime":"2022-02-04 15:34:00","State":"InTime"},{"Id":"33003920","DhId":"de:14628:3920","Place":"","Name":"Sebnitz Bahnhof","Longitude":4659650,"Latitude":5651407,"Position":"Next","Platform":{"Name":"2","Type":"Railtrack"},"Time":"2022-02-04 15:39:00","RealTime":"2022-02-04 15:39:00","State":"InTime"},{"Id":"9022270","DhId":"","Place":"","Name":"Sebnitz(Gr)","Longitude":4660147,"Latitude":5652017,"Position":"Next","Platform":{},"Time":"2022-02-04 15:44:00","State":"Cancelled"},{"Id":"99222260","DhId":"cz:55421:22260","Place":"","Name":"Dolni Poustevna","Longitude":4660474,"Latitude":5652329,"Position":"Next","Platform":{},"Time":"2022-02-04 15:45:00","RealTime":"2022-02-04 15:45:00","State":"InTime"},{"Id":"99222261","DhId":"cz:55421:22261","Place":"","Name":"Horni Poustevna","Longitude":4661531,"Latitude":5653797,"Position":"Next","Platform":{},"Time":"2022-02-04 15:48:00","RealTime":"2022-02-04 15:48:00","State":"InTime"},{"Id":"99222269","DhId":"cz:55421:22269","Place":"","Name":"Vilemov u Sluknova","Longitude":4663016,"Latitude":5653366,"Position":"Next","Platform":{},"Time":"2022-02-04 15:51:00","RealTime":"2022-02-04 15:51:00","State":"InTime"},{"Id":"99222263","DhId":"cz:55421:22263","Place":"","Name":"Mikulásovice, dolni nadrazi","Longitude":4664185,"Latitude":5652505,"Position":"Next","Platform":{},"Time":"2022-02-04 15:55:00","RealTime":"2022-02-04 15:55:00","State":"InTime"},{"Id":"99222262","DhId":"cz:55421:22262","Place":"","Name":"Lipova u Sluknova","Longitude":4665656,"Latitude":5653711,"Position":"Next","Platform":{},"Time":"2022-02-04 16:03:00","RealTime":"2022-02-04 16:03:00","State":"InTime"},{"Id":"99222267","DhId":"cz:55421:22267","Place":"","Name":"Velky Senov","Longitude":4667187,"Latitude":5653604,"Position":"Next","Platform":{},"Time":"2022-02-04 16:06:00","RealTime":"2022-02-04 16:06:00","State":"InTime"},{"Id":"99222268","DhId":"cz:55421:22268","Place":"","Name":"Velký Senov, zastavka","Longitude":4668130,"Latitude":5654908,"Position":"Next","Platform":{},"Time":"2022-02-04 16:08:00","RealTime":"2022-02-04 16:08:00","State":"InTime"},{"Id":"99222265","DhId":"cz:55421:22265","Place":"","Name":"Sluknov, zastavka","Longitude":4671060,"Latitude":5655222,"Position":"Next","Platform":{},"Time":"2022-02-04 16:12:00","RealTime":"2022-02-04 16:12:00","State":"InTime"},{"Id":"99222264","DhId":"cz:55421:22264","Place":"","Name":"Sluknov","Longitude":4672892,"Latitude":5655223,"Position":"Next","Platform":{},"Time":"2022-02-04 16:17:00","RealTime":"2022-02-04 16:17:00","State":"InTime"},{"Id":"99222266","DhId":"cz:55421:22266","Place":"","Name":"Valdek","Longitude":4676196,"Latitude":5652548,"Position":"Next","Platform":{},"Time":"2022-02-04 16:22:00","RealTime":"2022-02-04 16:22:00","State":"InTime"},{"Id":"99207173","DhId":"cz:55421:7173","Place":"","Name":"Rumburk","Longitude":4679342,"Latitude":5649935,"Position":"Next","Platform":{},"Time":"2022-02-04 16:30:00","RealTime":"2022-02-04 16:30:00","State":"InTime"}]
