[{"Id":"33006101","DhId":"de:14625:6101","Place":"","Name":"Königsbrück Bahnhof","Longitude":4632707,"Latitude":5682301,"Position":"Previous","Platform":{"Name":"1","Type":"Railtrack"},"Time":"2022-02-12 11:47:00","State":"Cancelled"},{"Id":"33006090","DhId":"de:14625:6090","Place":"","Name":"Laußnitz Bahnhof","Longitude":4631346,"Latitude":5680953,"Position":"Previous","Platform":{"Name":"1","Type":"Railtrack"},"Time":"2022-02-12 11:50:00","State":"Cancelled"},{"Id":"33006602","DhId":"de:14625:6602","Place":"","Name":"Ottendorf-Okrilla Bf Nord","Longitude":4628373,"Latitude":5675222,"Position":"Previous","Platform":{"Name":"2","Type":"Railtrack"},"Time":"2022-02-12 11:59:00","State":"Cancelled"},{"Id":"33006601","DhId":"de:14625:6601","Place":"","Name":"Ottendorf-Okrilla Hp","Longitude":4628470,"Latitude":5674022,"Position":"Previous","Platform":{"Name":"1","Type":"Railtrack"},"Time":"2022-02-12 12:04:00","State":"Cancelled"},{"Id":"33006600","DhId":"de:14625:6600","Place":"","Name":"Ottendorf-Okrilla Bf Süd","Longitude":4627708,"Latitude":5673039,"Position":"Previous","Platform":{"Name":"1","Type":"Railtrack"},"Time":"2022-02-12 12:07:00","State":"Cancelled"},{"Id":"33006620","DhId":"de:14625:6620","Place":"","Name":"Hermsdorf Bahnhof","Longitude":4627092,"Latitude":5671639,"Position":"Previous","Platform":{"Name":"1","Type":"Railtrack"},"Time":"2022-02-12 12:16:00","State":"Cancelled"},{"Id":"33006589","DhId":"de:14612:6589","Place":"","Name":"Weixdorf Bahnhof","Longitude":4626511,"Latitude":5669876,"Position":"Previous","Platform":{"Name":"1","Type":"Railtrack"},"Time":"2022-02-12 12:20:00","State":"Cancelled"},{"Id":"33006584","DhId":"de:14612:6584","Place":"","Name":"Weixdorf Haltepunkt Bad","Longitude":4626208,"Latitude":5668770,"Position":"Current","Platform":{"Name":"1","Type":"Railtrack"},"Time":"2022-02-12 12:23:00","State":"Cancelled"},{"Id":"33000658","DhId":"de:14612:658","Place":"","Name":"Dresden Bahnhof Klotzsche","Longitude":4625377,"Latitude":5665925,"Position":"Next","Platform":{"Name":"1","Type":"Railtrack"},"Time":"2022-02-12 12:27:00","State":"Cancelled"},{"Id":"33000267","DhId":"de:14612:267","Place":"","Name":"Dresden S-Bf. Industriegelände","Longitude":4623591,"Latitude":5662829,"Position":"Next","Platform":{"Name":"1","Type":"Railtrack"},"Time":"2022-02-12 12:31:00","State":"Cancelled"},{"Id":"33000016","DhId":"de:14612:16","Place":"","Name":"Dresden Bahnhof Neustadt","Longitude":4622114,"Latitude":5660417,"Position":"Next","Platform":{"Name":"4","Type":"Railtrack"},"Time":"2022-02-12 12:35:00","State":"Cancelled"}]
