[{"Id":"33003370","DhId":"de:14628:3370","Place":"","Name":"Pirna Bahnhof","Longitude":4635638,"Latitude":5649269,"Position":"Previous","Platform":{"Name":"2","Type":"Railtrack"},"Time":"2022-02-15 06:53:00","State":"Cancelled"},{"Id":"33003065","DhId":"de:14628:3065","Place":"","Name":"Heidenau S-Bf. Großsedlitz","Longitude":4633206,"Latitude":5649011,"Position":"Previous","Platform":{"Name":"1","Type":"Railtrack"},"Time":"2022-02-15 06:56:00","State":"Cancelled"},{"Id":"33003053","DhId":"de:14628:3053","Place":"","Name":"Heidenau S-Bahnhof Süd","Longitude":4631774,"Latitude":5650182,"Position":"Previous","Platform":{"Name":"1","Type":"Railtrack"},"Time":"2022-02-15 06:58:00","State":"Cancelled"},{"Id":"33003040","DhId":"de:14628:3040","Place":"","Name":"Heidenau Bahnhof","Longitude":4630647,"Latitude":5651217,"Position":"Previous","Platform":{"Name":"1","Type":"Railtrack"},"Time":"2022-02-15 07:00:00","State":"Cancelled"},{"Id":"33000910","DhId":"de:14612:910","Place":"","Name":"Dresden S-Bf. Zschachwitz","Longitude":4629629,"Latitude":5652139,"Position":"Previous","Platform":{"Name":"1","Type":"Railtrack"},"Time":"2022-02-15 07:03:00","State":"Cancelled"},{"Id":"33000098","DhId":"de:14612:98","Place":"","Name":"Dresden S-Bahnhof Niedersedlitz","Longitude":4628470,"Latitude":5653195,"Position":"Previous","Platform":{"Name":"1","Type":"Railtrack"},"Time":"2022-02-15 07:05:00","State":"Cancelled"},{"Id":"33000919","DhId":"de:14612:919","Place":"","Name":"Dresden S-Bahnhof Dobritz","Longitude":4627011,"Latitude":5654523,"Position":"Previous","Platform":{"Name":"1","Type":"Railtrack"},"Time":"2022-02-15 07:08:00","State":"Cancelled"},{"Id":"33000907","DhId":"de:14612:907","Place":"","Name":"Dresden S-Bahnhof Reick","Longitude":4625722,"Latitude":5655553,"Position":"Previous","Platform":{"Name":"1","Type":"Railtrack"},"Time":"2022-02-15 07:10:00","State":"Cancelled"},{"Id":"33000757","DhId":"de:14612:757","Place":"","Name":"Dresden S-Bf. Strehlen","Longitude":4623706,"Latitude":5656541,"Position":"Previous","Platform":{"Name":"1","Type":"Railtrack"},"Time":"2022-02-15 07:13:00","State":"Cancelled"},{"Id":"33000028","DhId":"de:14612:28","Place":"","Name":"Dresden Hauptbahnhof","Longitude":4621566,"Latitude":5657622,"Position":"Previous","Platform":{"Name":"14","Type":"Railtrack"},"Time":"2022-02-15 07:16:00","State":"Cancelled"},{"Id":"33000025","DhId":"de:14612:25","Place":"","Name":"Dresden S-Bf. Freiberger Straße","Longitude":4620703,"Latitude":5658442,"Position":"Previous","Platform":{"Name":"1","Type":"Railtrack"},"Time":"2022-02-15 07:19:00","State":"Cancelled"},{"Id":"33000001","DhId":"de:14612:1","Place":"","Name":"Dresden Bahnhof Mitte","Longitude":4621020,"Latitude":5659315,"Position":"Previous","Platform":{"Name":"1","Type":"Railtrack"},"Time":"2022-02-15 07:21:00","State":"Cancelled"},{"Id":"33000016","DhId":"de:14612:16","Place":"","Name":"Dresden Bahnhof Neustadt","Longitude":4622148,"Latitude":5660412,"Position":"Previous","Platform":{"Name":"1","Type":"Railtrack"},"Time":"2022-02-15 07:24:00","State":"Cancelled"},{"Id":"33000267","DhId":"de:14612:267","Place":"","Name":"Dresden S-Bf. Industriegelände","Longitude":4623600,"Latitude":5662824,"Position":"Previous","Platform":{"Name":"2","Type":"Railtrack"},"Time":"2022-02-15 07:28:00","State":"Cancelled"},{"Id":"33000658","DhId":"de:14612:658","Place":"","Name":"Dresden Bahnhof Klotzsche","Longitude":4625391,"Latitude":5665918,"Position":"Previous","Platform":{"Name":"3","Type":"Railtrack"},"Time":"2022-02-15 07:32:00","State":"Cancelled"},{"Id":"33000662","DhId":"de:14612:662","Place":"","Name":"Dresden S-Bahnhof Grenzstraße","Longitude":4624598,"Latitude":5667426,"Position":"Current","Platform":{"Name":"2","Type":"Railtrack"},"Time":"2022-02-15 07:36:00","State":"Cancelled"},{"Id":"33000617","DhId":"de:14612:617","Place":"","Name":"Dresden Flughafen","Longitude":4623753,"Latitude":5667015,"Position":"Next","Platform":{"Name":"1","Type":"Railtrack"},"Time":"2022-02-15 07:39:00","State":"Cancelled"}]
